City,Lat,Lng,Max Temp,Humidity,Cloudiness,Wind Speed,Country,Date
Hithadhoo,-0.6,73.0833,83.34,67,100,7.9,MV,1633797558
Busselton,-33.65,115.3333,46.09,80,16,8.14,AU,1633797559
Saint Paul Harbor,57.79,-152.4072,49.51,46,90,9.22,US,1633797560
Sitka,57.0531,-135.33,48.09,76,90,17.27,US,1633797562
New Norfolk,-42.7826,147.0587,47.7,62,44,3.0,AU,1633797563
Araci,-11.3333,-38.9667,97.16,23,72,10.58,BR,1633797564
Szydłowiec,51.2282,20.8611,48.52,55,8,6.4,PL,1633797566
Denpasar,-8.65,115.2167,78.46,88,40,3.44,ID,1633797430
Saint George,37.1041,-113.5841,64.87,85,40,4.0,US,1633797568
Port Macquarie,-31.4333,152.9167,58.96,94,14,9.82,AU,1633797569
Krasnosel'kup,65.7,82.4667,27.39,77,100,17.36,RU,1633797314
Carnarvon,-24.8667,113.6333,64.47,72,0,20.71,AU,1633797572
Nanortalik,60.1432,-45.2371,38.64,77,18,2.71,GL,1633797573
Chanute,37.6792,-95.4572,84.78,50,1,14.97,US,1633797574
Cherskiy,68.75,161.3,0.03,100,96,4.21,RU,1633797575
Tiksi,71.6872,128.8694,22.35,83,99,7.07,RU,1633797577
Grenville,12.1167,-61.6167,81.9,79,100,10.69,GD,1633797578
Vaini,-21.2,-175.2,69.96,94,75,4.61,TO,1633797579
Alihe,50.5667,123.7167,38.91,97,100,4.68,CN,1633797581
São José da Coroa Grande,-8.8978,-35.1478,81.32,62,98,11.03,BR,1633797582
Albany,42.6001,-73.9662,65.44,72,100,1.99,US,1633797570
Mataura,-46.1927,168.8643,41.49,97,30,3.18,NZ,1633797584
Ostrovnoy,68.0531,39.5131,36.75,79,96,12.39,RU,1633797586
Khovd,48.0056,91.6419,33.55,41,0,1.3,MN,1633797588
Kissamos,35.4939,23.6569,74.88,79,0,4.76,GR,1633797589
Thompson,55.7435,-97.8558,37.56,100,90,3.44,CA,1633797358
Rikitea,-23.1203,-134.9692,73.9,82,10,17.63,PF,1633797592
Saskylakh,71.9167,114.0833,10.42,100,100,2.82,RU,1633797593
Iba,15.3667,120.0333,77.14,86,100,2.75,PH,1633797594
Salalah,17.0151,54.0924,82.49,83,20,6.91,OM,1633797596
Lavrentiya,65.5833,-171.0,29.16,83,86,10.27,RU,1633797597
Geraldton,-28.7667,114.6,54.01,66,0,9.22,AU,1633797598
Chokurdakh,70.6333,147.9167,0.48,100,97,4.59,RU,1633797601
East London,-33.0153,27.9116,61.74,77,0,23.02,ZA,1633797602
Launceston,-41.45,147.1667,47.8,81,10,11.5,AU,1633797604
Iskateley,67.6803,53.1512,30.92,76,82,8.72,RU,1633797605
Butaritari,3.0707,172.7902,82.04,64,83,14.97,KI,1633797607
Ambilobe,-13.2,49.05,75.25,62,70,7.09,MG,1633797608
Avarua,-21.2078,-159.775,64.45,100,40,1.14,CK,1633797609
Waingapu,-9.6567,120.2641,77.41,80,21,4.29,ID,1633797611
Nikolskoye,59.7035,30.7861,53.87,80,100,6.11,RU,1633797612
Ushuaia,-54.8,-68.3,47.82,66,40,6.91,AR,1633797607
Cedar City,37.6775,-113.0619,51.4,67,75,0.0,US,1633797615
Outjo,-20.1167,16.15,85.19,9,0,16.02,NA,1633797616
Harper,4.375,-7.7169,79.66,83,93,7.78,LR,1633797617
Östersund,63.1792,14.6357,55.85,88,75,9.22,SE,1633797618
Necochea,-38.5473,-58.7368,68.04,52,0,7.76,AR,1633797620
Jamestown,42.097,-79.2353,67.59,94,90,10.0,US,1633797385
Punta Arenas,-53.15,-70.9167,60.91,44,40,27.63,CL,1633797505
Puerto Ayora,-0.7393,-90.3518,76.96,81,96,12.21,EC,1633797623
Cape Town,-33.9258,18.4232,66.27,64,20,17.27,ZA,1633797545
Tuktoyaktuk,69.4541,-133.0374,28.4,93,90,5.75,CA,1633797626
Husavik,66.0449,-17.3389,40.91,91,100,8.03,IS,1633797627
Bredasdorp,-34.5322,20.0403,63.72,55,13,10.36,ZA,1633797628
Saint-Augustin,51.226,-58.6502,49.6,42,12,5.53,CA,1633797629
Hazorasp,41.3194,61.0742,49.84,43,13,8.57,UZ,1633797631
Kapaa,22.0752,-159.319,76.12,75,40,5.99,US,1633797339
Bethel,41.3712,-73.414,66.92,75,75,1.01,US,1633797633
Kahului,20.8947,-156.47,74.46,91,40,13.8,US,1633797628
Bluff,-46.6,168.3333,41.81,89,45,9.1,NZ,1633797635
Lagoa,39.05,-27.9833,69.89,72,19,17.36,PT,1633797638
Saint-Philippe,-21.3585,55.7679,72.99,83,59,13.94,RE,1633797639
Leningradskiy,69.3833,178.4167,16.07,95,100,4.12,RU,1633797640
Xam Nua,20.4197,104.0439,67.55,96,100,0.29,LA,1633797643
Formosa,-26.1775,-58.1781,71.58,94,90,6.91,AR,1633797644
Provideniya,64.3833,-173.3,28.27,82,83,5.55,RU,1633797646
Sítio Novo do Tocantins,-5.5183,-47.4611,91.33,55,75,4.61,BR,1633797648
Richards Bay,-28.783,32.0377,68.7,80,65,19.24,ZA,1633797649
Bandarbeyla,9.4942,50.8122,78.44,84,12,24.47,SO,1633797650
Voskresenskoye,56.8381,45.4317,43.18,69,93,5.39,RU,1633797651
Monkey Bay,-14.0728,34.9201,80.11,54,2,3.89,MW,1633797653
Iqaluit,63.7506,-68.5145,37.13,93,90,5.01,CA,1633797654
Etchoropo,26.7667,-109.6667,93.34,29,8,7.74,MX,1633797655
Pedra Branca,-5.4542,-39.7172,90.84,34,84,5.12,BR,1633797656
Simpang,-1.2667,104.0833,78.4,85,99,2.75,ID,1633797658
Khatanga,71.9667,102.5,15.87,96,100,3.11,RU,1633797660
Hong Kong,22.2855,114.1577,80.58,95,100,1.01,HK,1633797566
Kavaratti,10.5669,72.642,82.74,78,100,11.07,IN,1633797664
Salinas,36.6777,-121.6555,63.19,56,90,3.44,US,1633797665
Raja,8.4596,25.678,83.12,51,97,1.36,SS,1633797666
Chiautla,19.5333,-98.8833,67.86,52,43,2.89,MX,1633797668
Arraial do Cabo,-22.9661,-42.0278,73.36,64,90,11.5,BR,1633797669
Aden,12.7794,45.0367,86.43,75,53,14.27,YE,1633797634
Cabra,37.4725,-4.4421,81.84,33,55,3.62,ES,1633797671
São Filipe,14.8961,-24.4956,81.63,73,15,5.73,CV,1633797673
Kānkon,15.0167,74.0167,80.33,83,93,4.47,IN,1633797674
Itaituba,-4.2761,-55.9836,93.36,59,20,5.75,BR,1633797676
Rurrenabaque,-14.4413,-67.5278,93.09,59,40,4.61,BO,1633797678
Tsarychanka,48.937,34.4786,48.94,24,100,10.2,UA,1633797679
Bengkulu,-3.8004,102.2655,77.23,92,38,5.01,ID,1633797680
Mabusag,17.9261,120.4976,78.4,82,86,2.91,PH,1633797682
Havelock,34.8791,-76.9013,76.98,90,100,8.21,US,1633797683
Cockburn Town,21.4612,-71.1419,83.01,72,79,12.71,TC,1633797684
Fairbanks,64.8378,-147.7164,36.3,91,90,0.0,US,1633797644
Coquimbo,-29.9533,-71.3436,60.53,63,20,11.5,CL,1633797687
Lebu,-37.6167,-73.65,58.89,69,8,10.13,CL,1633797688
Villefontaine,45.6125,5.1456,60.48,77,0,8.05,FR,1633797689
Mahébourg,-20.4081,57.7,73.69,78,40,11.5,MU,1633797690
Torbay,47.6666,-52.7314,46.89,78,75,29.93,CA,1633797692
Payo,-3.7508,103.6372,76.37,85,87,2.24,ID,1633797693
Varangaon,21.0167,75.9,80.17,65,26,1.28,IN,1633797694
Namatanai,-3.6667,152.4333,77.81,85,84,3.76,PG,1633797696
North Bend,43.4065,-124.2243,56.86,96,1,8.05,US,1633797697
Kericho,-0.3677,35.2831,65.34,98,100,2.13,KE,1633797698
Fort Nelson,58.8053,-122.7002,38.79,75,40,0.0,CA,1633797700
Qaanaaq,77.484,-69.3632,25.68,94,100,13.65,GL,1633797701
Longyearbyen,78.2186,15.6401,21.04,73,20,5.75,SJ,1633797691
Berlevåg,70.8578,29.0864,37.6,90,100,5.82,NO,1633797703
Vallenar,-28.5708,-70.7581,74.16,19,0,11.12,CL,1633797705
Dikson,73.5069,80.5464,29.55,72,100,22.62,RU,1633797707
Bozoum,6.3193,16.3799,73.99,87,94,1.54,CF,1633797709
Pevek,69.7008,170.3133,23.9,93,100,2.3,RU,1633797712
Ngunguru,-35.6167,174.5,52.16,84,12,10.83,NZ,1633797714
Lewistown,40.5992,-77.5714,68.58,88,90,4.61,US,1633797573
Qinzhou,21.95,108.6167,70.41,95,100,21.85,CN,1633797717
Hofn,64.2539,-15.2082,47.64,84,100,3.71,IS,1633797718
Ucluelet,48.9329,-125.5528,52.11,90,100,1.01,CA,1633797577
Barrow,71.2906,-156.7887,30.22,69,90,9.22,US,1633797720
Wick,58.4333,-3.0833,55.45,94,75,9.22,GB,1633797722
Diamantino,-14.4086,-56.4461,100.24,29,91,5.75,BR,1633797723
Kaitangata,-46.2817,169.8464,41.0,94,40,4.23,NZ,1633797725
Aswān,24.0934,32.907,99.7,18,0,12.66,EG,1633797726
Tshikapa,-6.4167,20.8,84.18,44,55,1.16,CD,1633797727
Castro,-24.7911,-50.0119,56.62,98,100,6.11,BR,1633797729
Plettenberg Bay,-34.0527,23.3716,59.49,71,46,8.55,ZA,1633797730
Grindavik,63.8424,-22.4338,49.95,93,90,12.66,IS,1633797731
Straumen,63.8709,11.2999,55.62,92,100,0.56,NO,1633797732
Purpe,64.4803,76.6897,28.29,94,100,27.07,RU,1633797734
Mount Isa,-20.7333,139.5,82.17,34,86,1.14,AU,1633797735
Ipixuna,-1.7625,-48.8043,85.95,47,97,5.53,BR,1633797736
Galle,6.0367,80.217,80.73,82,98,9.48,LK,1633797738
Souillac,-20.5167,57.5167,73.78,78,40,11.5,MU,1633797739
Atuona,-9.8,-139.0333,77.95,71,15,18.95,PF,1633797740
George Town,5.4112,100.3354,81.9,91,20,0.0,MY,1633797741
Hobart,-42.8794,147.3294,48.06,70,40,1.99,AU,1633797563
Otane,-39.8833,176.6333,50.38,83,29,6.91,NZ,1633797744
Port Alfred,-33.5906,26.891,63.23,70,1,20.31,ZA,1633797745
Minggang,32.4586,114.0486,64.87,84,100,7.45,CN,1633797746
Cabo San Lucas,22.8909,-109.9124,93.61,52,8,3.0,MX,1633797661
Hermanus,-34.4187,19.2345,59.76,72,6,5.32,ZA,1633797749
Flinders,-34.5833,150.8552,65.05,81,64,7.05,AU,1633797750
Española,35.9911,-106.0806,73.27,39,48,15.79,US,1633797751
Ahipara,-35.1667,173.1667,53.56,74,66,10.33,NZ,1633797752
Kenai,60.5544,-151.2583,42.89,89,90,10.36,US,1633797754
Vardø,70.3705,31.1107,38.3,97,100,9.35,NO,1633797755
La Ronge,55.1001,-105.2842,48.45,53,1,5.75,CA,1633797757
San Andrés,12.5847,-81.7006,86.02,74,20,16.11,CO,1633797636
Storforshei,66.4043,14.5233,49.66,96,100,4.81,NO,1633797759
Waverly,42.7392,-84.6208,72.09,86,90,6.91,US,1633797760
Courcelles,50.4638,4.3747,60.39,72,0,8.05,BE,1633797641
Talnakh,69.4865,88.3972,13.69,90,89,13.62,RU,1633797763
Praia da Vitória,38.7333,-27.0667,75.76,78,20,14.14,PT,1633797764
Urengoy,65.9667,78.3667,28.54,67,100,16.2,RU,1633797765
Norman Wells,65.282,-126.8329,23.04,93,75,3.44,CA,1633797767
Pangkalanbuun,-2.6833,111.6167,76.03,94,70,1.86,ID,1633797768
Codajás,-3.8367,-62.0569,97.59,38,99,3.94,BR,1633797769
Mayo,38.8876,-76.5119,73.24,78,75,10.0,US,1633797771
Shelburne,44.0787,-80.2041,64.6,99,100,10.76,CA,1633797772
Águas Vermelhas,-15.7472,-41.46,84.96,41,95,6.13,BR,1633797773
Lincoln,40.8,-96.667,71.98,73,1,14.97,US,1633797695
Honningsvåg,70.9821,25.9704,38.48,93,100,4.25,NO,1633797776
Mogadishu,2.0371,45.3438,78.55,88,24,12.28,SO,1633797777
Aksarka,66.5606,67.7975,30.04,80,95,9.01,RU,1633797778
Esperance,-33.8667,121.9,48.04,60,89,6.2,AU,1633797779
Najrān,17.4924,44.1277,84.85,27,30,9.51,SA,1633797731
Qui Nhon,13.7667,109.2333,79.41,82,66,5.14,VN,1633797782
Nizhniy Kislyay,50.8497,40.1719,45.09,49,88,6.26,RU,1633797783
Kovdor,67.5662,30.4758,37.17,99,100,4.68,RU,1633797785
Nouakchott,18.0858,-15.9785,111.13,32,96,2.82,MR,1633797549
Kurtamysh,54.9103,64.4319,43.7,71,39,7.61,RU,1633797789
Upernavik,72.7868,-56.1549,29.82,53,100,7.96,GL,1633797790
Mar del Plata,-38.0023,-57.5575,63.0,62,0,13.0,AR,1633797792
Oranjemund,-28.55,16.4333,59.74,78,15,21.99,NA,1633797793
Auki,-8.7676,160.7034,76.37,88,100,2.33,SB,1633797794
Tsiroanomandidy,-18.7667,46.0333,75.58,47,98,4.07,MG,1633797796
Tautira,-17.7333,-149.15,77.02,71,36,1.59,PF,1633797798
Bambous Virieux,-20.3428,57.7575,73.65,78,40,11.5,MU,1633797799
Montero,-17.3333,-63.25,96.48,33,88,11.25,BO,1633797801
Rust,48.2667,7.7333,61.88,67,0,9.22,DE,1633797802
Ponta do Sol,32.6667,-17.1,78.71,68,20,2.44,PT,1633797803
Kruisfontein,-34.0033,24.7314,60.89,70,7,14.18,ZA,1633797804
Morondava,-20.2833,44.2833,77.14,79,24,6.82,MG,1633797806
Chui,-33.6971,-53.4616,63.23,64,58,12.24,UY,1633797807
Dzhebariki-Khaya,62.2167,135.8,31.68,98,100,5.84,RU,1633797808
Zarechnyy,53.2036,45.1923,49.32,33,6,3.4,RU,1633797810
Chernyshevskiy,63.0128,112.4714,33.53,96,100,13.06,RU,1633797811
Marsh Harbour,26.5412,-77.0636,82.2,67,76,2.98,BS,1633797812
Sola,-13.8833,167.55,79.56,81,87,20.15,VU,1633797814
Hastings,50.8552,0.5729,63.79,79,45,6.67,GB,1633797815
Korla,41.7597,86.1469,47.07,39,1,4.09,CN,1633797817
Port Keats,-14.25,129.55,79.86,80,14,6.29,AU,1633797818
Aras,42.5617,-2.356,61.21,55,0,9.22,ES,1633797819
Saint-François,46.4154,3.9054,56.68,78,90,2.3,FR,1633797822
Fortuna,40.5982,-124.1573,54.36,56,20,3.0,US,1633797823
Balikpapan,-1.2675,116.8289,80.22,82,100,9.4,ID,1633797824
Honiara,-9.4333,159.95,77.23,90,90,0.6,SB,1633797825
Cheney,47.4874,-117.5758,47.77,72,75,5.75,US,1633797827
Ilulissat,69.2167,-51.1,28.42,40,75,11.5,GL,1633797828
Callaway,30.153,-85.5699,86.92,56,1,4.0,US,1633797830
Yellowknife,62.456,-114.3525,42.42,99,90,10.36,CA,1633797831
Umarizal,-5.9906,-37.8144,98.55,25,42,9.69,BR,1633797832
Karratha,-20.7377,116.8463,78.42,24,0,10.4,AU,1633797833
Donskoye,45.4552,41.9741,51.57,51,81,18.39,RU,1633797835
Codrington,-38.2667,141.9667,48.83,65,98,6.91,AU,1633797836
Faya,18.3851,42.4509,73.51,35,46,11.83,SA,1633797837
Arkadak,51.9326,43.4978,44.6,63,0,5.59,RU,1633797839
Caravelas,-17.7125,-39.2481,76.24,69,97,8.79,BR,1633797842
Río Gallegos,-51.6226,-69.2181,66.25,30,75,29.93,AR,1633797600
San Patricio,28.017,-97.5169,86.88,48,21,8.1,US,1633797847
Emba,48.8264,58.1442,48.67,43,0,6.85,KZ,1633797848
Tabou,4.423,-7.3528,79.74,84,96,8.23,CI,1633797849
Simao,22.7886,100.9748,62.73,94,100,2.59,CN,1633797850
Acapulco de Juárez,16.8634,-99.8901,85.82,74,40,3.44,MX,1633797684
Lüderitz,-26.6481,15.1594,67.41,55,4,25.52,NA,1633797854
Wollongong,-34.4333,150.8833,64.92,81,63,6.6,AU,1633797568
Valle de Allende,26.9333,-105.4,79.2,21,0,2.26,MX,1633797856
Dunedin,-45.8742,170.5036,48.79,91,4,4.25,NZ,1633797857
Ngama,11.7833,17.1667,92.79,30,92,3.31,TD,1633797859
Devils Lake,48.1128,-98.8651,48.94,97,90,8.99,US,1633797860
Yar-Sale,66.8333,70.8333,28.56,78,54,14.74,RU,1633797862
Road Town,18.4167,-64.6167,89.64,55,20,11.5,VG,1633797863
Laguna,38.421,-121.4238,62.44,74,1,1.01,US,1633797864
Krasnovishersk,60.4078,57.082,38.03,78,99,4.43,RU,1633797866
Hervey Bay,-25.2986,152.8535,71.02,75,2,9.71,AU,1633797867
Shatsk,54.0258,41.7119,42.82,64,0,5.95,RU,1633797868
Bathsheba,13.2167,-59.5167,88.41,70,40,13.8,BB,1633797869
Port Elizabeth,-33.918,25.5701,64.69,63,0,19.57,ZA,1633797871
Yārāda,17.65,83.2667,82.72,89,75,5.75,IN,1633797872
Zhigansk,66.7697,123.3711,34.02,99,100,17.6,RU,1633797873
Ribeira Grande,38.5167,-28.7,73.8,73,20,17.27,PT,1633797874
Alice Springs,-23.7,133.8833,78.35,27,86,10.36,AU,1633797876
Zemio,5.0314,25.1361,79.81,65,100,1.34,CF,1633797877
Kuah,6.3265,99.8432,80.6,94,20,1.14,MY,1633797878
Yulara,-25.2406,130.9889,73.24,38,90,5.75,AU,1633797880
Palmer,42.1584,-72.3287,64.65,70,90,1.01,US,1633797881
Adrar,20.5022,-10.0711,99.72,7,84,8.57,MR,1633797882
Ugoofaaru,5.6667,73.0,82.87,79,100,14.23,MV,1633797883
Vila Franca do Campo,37.7167,-25.4333,73.81,68,19,9.73,PT,1633797886
Buckeye,33.3703,-112.5838,82.11,41,100,0.0,US,1633797638
Hasaki,35.7333,140.8333,66.6,85,40,6.2,JP,1633797888
Severo-Kuril'sk,50.6789,156.125,43.16,79,34,11.3,RU,1633797889
Mossamedes,-15.1961,12.1522,67.15,75,9,6.17,AO,1633797891
Hunterville,-39.9333,175.5667,48.56,97,93,0.74,NZ,1633797892
Trairi,-3.2778,-39.2689,86.43,61,70,15.03,BR,1633797678
Broken Hill,-31.95,141.4333,58.71,82,90,21.85,AU,1633797895
Vila Velha,-20.3297,-40.2925,69.75,83,75,10.36,BR,1633797896
Buala,-8.145,159.5921,79.29,82,100,3.31,SB,1633797897
Inta,66.0317,60.1659,28.33,75,44,10.58,RU,1633797898
Kavieng,-2.5744,150.7967,80.69,80,99,7.67,PG,1633797900
Grand Gaube,-20.0064,57.6608,73.8,71,12,10.0,MU,1633797901
Katsuura,35.1333,140.3,71.19,85,32,5.86,JP,1633797903
Bubaque,11.2833,-15.8333,83.1,74,81,10.38,GW,1633797904
Valparaíso,-33.0393,-71.6273,62.24,66,40,5.75,CL,1633797906
Port-Gentil,-0.7193,8.7815,78.76,89,90,10.36,GA,1633797908
Adeje,28.1227,-16.726,76.3,64,20,1.01,ES,1633797909
Tasiilaq,65.6145,-37.6368,35.76,73,66,7.49,GL,1633797910
Lake Shasta,40.6804,-122.3708,61.81,57,32,1.88,US,1633797819
Paris,48.8534,2.3488,64.58,61,0,4.0,FR,1633797161
Ayagoz,47.9714,80.4392,38.28,50,15,3.58,KZ,1633797914
Khandyga,62.6667,135.6,31.3,98,100,5.06,RU,1633797915
Taree,-31.9,152.4667,59.58,100,8,0.0,AU,1633797916
Cidreira,-30.1811,-50.2056,63.64,84,100,19.8,BR,1633797918
Hailar,49.2,119.7,35.26,96,100,24.05,CN,1633797920
Seymchan,62.8833,152.4333,17.04,80,13,3.62,RU,1633797921
Sørland,67.667,12.6934,50.02,96,100,17.52,NO,1633797923
Nové Hrady,48.7896,14.7784,49.48,79,0,4.65,CZ,1633797924
Bafatá,12.1667,-14.75,87.57,70,100,5.86,GW,1633797925
Laas,46.6166,10.7002,58.08,82,10,3.42,IT,1633797927
Kieta,-6.2167,155.6333,77.77,85,57,3.76,PG,1633797928
Sakakah,29.9697,40.2064,92.77,16,0,12.3,SA,1633797929
São Félix do Xingu,-6.6447,-51.995,101.8,23,86,4.03,BR,1633797931
Chardara,41.2547,67.9692,53.22,27,90,11.92,KZ,1633797932
Kumul,42.8,93.45,45.32,34,0,2.55,CN,1633797933
Kitimat,54.0524,-128.6534,47.91,28,100,3.51,CA,1633797935
Borskoye,53.0333,51.7167,43.84,59,6,5.44,RU,1633797936
Vila do Maio,15.1333,-23.2167,93.99,79,7,15.46,CV,1633797937
Dilla,6.41,38.31,63.95,94,93,4.52,ET,1633797939
Tilichiki,60.4667,166.1,24.17,78,12,4.32,RU,1633797940
Port Hedland,-20.3167,118.5667,69.85,78,0,4.61,AU,1633797941
Darhan,49.4867,105.9228,36.36,55,4,6.62,MN,1633797771
Kanye,-24.9667,25.3327,75.83,10,1,8.52,BW,1633797944
Madang,-5.2246,145.7966,77.67,91,88,6.15,PG,1633797946
Half Moon Bay,37.4636,-122.4286,63.9,69,20,0.0,US,1633797948
Lompoc,34.6391,-120.4579,69.13,64,1,0.0,US,1633797950
Turukhansk,65.8167,87.9833,25.34,83,100,19.15,RU,1633797951
Nome,64.5011,-165.4064,37.47,70,75,5.75,US,1633797952
Provincia di Imperia,43.9667,7.7833,60.8,56,44,6.93,IT,1633797954
Faanui,-16.4833,-151.75,77.7,72,11,6.62,PF,1633797956
Dingle,10.9995,122.6711,74.12,94,98,9.31,PH,1633797957
Vao,-22.6667,167.4833,69.53,59,100,14.88,NC,1633797958
Nuuk,64.1835,-51.7216,36.21,75,75,11.5,GL,1633797960
Port Lincoln,-34.7333,135.8667,52.41,60,67,8.9,AU,1633797945
Kutum,14.2,24.6667,86.41,17,69,8.12,SD,1633797962
Khrebtovaya,56.7032,104.2494,38.59,84,100,12.91,RU,1633797964
Areosa,41.7178,-8.8571,76.68,70,100,5.93,PT,1633797965
Northam,51.0333,-4.2167,63.01,85,100,4.32,GB,1633797966
Puerto Limón,10.0,-83.0333,82.29,83,75,3.44,CR,1633797969
Mujiayingzi,42.1167,118.7833,46.31,42,91,14.45,CN,1633797970
Katobu,-4.9408,122.5276,75.16,91,98,3.11,ID,1633797972
Muyezerskiy,63.9333,31.65,47.98,96,100,5.48,RU,1633797974
Annau,37.8876,58.516,53.1,35,0,6.91,TM,1633797976
Kholm,59.2667,32.85,46.74,82,98,6.44,RU,1633797978
Namwala,-15.7504,26.4384,88.21,20,4,4.54,ZM,1633797979
Qasigiannguit,68.8193,-51.1922,28.65,68,100,5.12,GL,1633797981
Alofi,-19.0595,-169.9187,69.69,94,95,1.14,NU,1633797983
Yaan,7.3833,8.5667,79.21,87,100,4.97,NG,1633797984
Horasan,40.0458,42.1728,54.43,45,3,4.94,TR,1633797986
Hobyo,5.3505,48.5268,78.71,84,33,13.73,SO,1633797987
Yangi Marg`ilon,40.4272,71.7189,54.82,66,100,6.91,UZ,1633797988
Hualmay,-11.0964,-77.6139,67.17,78,81,7.96,PE,1633797990
Kargasok,59.0556,80.8572,36.1,83,69,11.34,RU,1633797991
Swift Current,50.2834,-107.8014,54.41,54,1,10.36,CA,1633797993
Guarapari,-20.6667,-40.4975,69.69,78,100,2.51,BR,1633797996
Rio Grande,-32.035,-52.0986,68.11,70,84,17.47,BR,1633797998
Siguiri,11.6667,-9.5,90.32,53,99,2.93,GN,1633797999
Harrisburg,40.2737,-76.8844,68.49,78,90,5.99,US,1633797888
Stornoway,58.2093,-6.3865,56.93,88,4,10.36,GB,1633797834
Tabuk,17.4189,121.4443,73.8,90,47,3.58,PH,1633798003
Toulouse,43.6043,1.4437,61.61,67,90,6.91,FR,1633798005
Likhoslavl',57.1275,35.464,41.41,70,50,4.99,RU,1633798006
Serafimovich,49.5786,42.736,46.26,49,60,5.64,RU,1633798007
Tomatlán,19.9333,-105.25,87.93,70,100,3.42,MX,1633797969
Nur-Sultan,51.1801,71.446,37.35,75,0,8.95,KZ,1633798010
Quimper,48.0,-4.1,71.6,77,0,6.91,FR,1633797874
Peceneaga,45.0167,28.1333,50.47,49,98,9.08,RO,1633798013
Itaperuçu,-25.22,-49.3478,59.9,98,100,1.79,BR,1633798014
Broome,42.2506,-75.833,67.08,66,90,1.99,US,1633798016
Beringovskiy,63.05,179.3167,29.88,93,100,7.52,RU,1633798017
Dingzhou,38.5131,114.9956,59.11,50,100,11.39,CN,1633798018
Ust-Nera,64.5667,143.2,19.08,82,64,7.36,RU,1633798020
Mitsamiouli,-11.3847,43.2844,79.09,73,20,17.27,KM,1633798021
Vila,42.0304,-8.1588,69.75,72,100,3.96,PT,1633798023
Constitución,-35.3333,-72.4167,59.29,68,2,6.44,CL,1633797987
Veinticinco de Mayo,-35.4323,-60.1727,69.06,39,5,8.01,AR,1633798027
Uíge,-7.6087,15.0613,86.02,54,40,9.22,AO,1633798028
Gushikawa,26.3544,127.8686,81.63,83,1,11.5,JP,1633798030
Ayan,56.45,138.1667,41.27,57,36,5.17,RU,1633798031
Hay River,60.8156,-115.7999,40.98,75,90,6.91,CA,1633798032
Polyarny,69.1989,33.4478,36.07,98,100,10.29,RU,1633798033
Olinda,-8.0089,-34.8553,83.93,65,40,13.8,BR,1633798035
Imbituba,-28.24,-48.6703,64.29,91,100,13.04,BR,1633798036
Tonj,7.2737,28.6822,73.04,84,91,2.75,SS,1633798037
Lichinga,-13.3128,35.2406,73.49,49,0,3.44,MZ,1633798039
Mehamn,71.0357,27.8492,36.59,94,100,3.13,NO,1633798041
Pokaran,26.9167,71.9167,91.24,28,0,13.29,IN,1633798042
Paamiut,61.994,-49.6678,35.15,40,4,3.02,GL,1633798043
Hambantota,6.1241,81.1185,80.98,79,94,16.89,LK,1633798045
Bhubaneswar,20.2333,85.8333,85.08,94,75,2.3,IN,1633798046
Cherkasskoye,52.4333,47.2167,44.64,55,7,4.63,RU,1633798047
Carora,10.1755,-70.0827,89.1,48,98,1.97,VE,1633798049
Rāwah,34.4816,41.9093,79.39,13,0,5.3,IQ,1633798050
Hamilton,39.1834,-84.5333,80.04,67,1,1.01,US,1633798051
Luján,-34.5703,-59.105,71.02,47,5,1.99,AR,1633798052
Sechura,-5.5569,-80.8222,77.49,58,35,8.84,PE,1633798054
Sobolevo,54.4299,31.8996,41.67,69,7,2.44,RU,1633798055
Airai,-8.9266,125.4092,58.66,72,65,1.61,TL,1633798056
Manokwari,-0.8667,134.0833,78.28,82,42,4.47,ID,1633798058
Iranshahr,27.2025,60.6848,89.94,14,0,0.0,IR,1633798059
Ibotirama,-12.1853,-43.2206,105.98,13,69,1.72,BR,1633798060
Vangaindrano,-23.35,47.6,68.83,76,20,9.84,MG,1633798061
Taoudenni,22.6783,-3.9836,104.05,6,74,3.76,ML,1633798063
Xichang,27.8964,102.2634,63.41,91,100,3.38,CN,1633798064
Peskovka,59.0448,52.3606,42.13,97,100,4.85,RU,1633798065
Isangel,-19.55,169.2667,70.21,84,33,11.39,VU,1633798067
Brigantine,39.4101,-74.3646,71.87,79,90,17.27,US,1633798068
Botwood,49.1499,-55.3482,44.08,77,100,13.89,CA,1633798069
Clyde River,70.4692,-68.5914,34.97,73,26,11.34,CA,1633798071
Asău,46.4333,26.4,47.39,57,88,4.74,RO,1633798072
Gombe,10.2897,11.1673,86.45,42,66,3.33,NG,1633798073
Pokhara,28.2333,83.9833,68.0,88,48,4.97,NP,1633798074
Saldanha,-33.0117,17.9442,68.05,77,0,17.94,ZA,1633798076
Kotapārh,19.15,82.35,72.99,80,98,3.94,IN,1633798077
Manoel Urbano,-8.8389,-69.2597,95.63,38,88,3.4,BR,1633798078
Bharatpur,27.2167,77.4833,85.59,31,0,2.57,IN,1633798080
Bushehr,28.9684,50.8385,91.49,43,0,19.57,IR,1633798081
Cabedelo,-6.9811,-34.8339,88.47,68,75,15.08,BR,1633798082
Baykit,61.67,96.37,35.53,85,100,14.47,RU,1633798083
Nouadhibou,20.931,-17.0347,80.58,57,89,16.11,MR,1633798085
Lorengau,-2.0226,147.2712,81.7,77,85,5.35,PG,1633798086
Patrocínio,-18.9439,-46.9925,86.32,43,64,6.29,BR,1633798088
Kaeo,-35.1,173.7833,52.32,86,43,6.73,NZ,1633798091
Vostok,46.4856,135.8833,44.01,64,100,5.35,RU,1633798092
Llandrindod Wells,52.2416,-3.3787,62.29,89,100,3.85,GB,1633798093
Muroto-misakicho,33.2833,134.15,76.73,72,23,16.49,JP,1633798095
San Antonio,29.4241,-98.4936,83.89,65,20,1.99,US,1633798085
Arlit,18.7369,7.3853,94.6,8,39,5.28,NE,1633798097
Oudtshoorn,-33.5907,22.2014,59.36,67,62,9.04,ZA,1633798099
Kostanay,53.1667,63.5833,41.29,70,0,8.95,KZ,1633798100
Lugovoy,42.9472,72.7644,49.73,92,100,2.51,KZ,1633798102
Mahibadhoo,3.7833,72.9667,83.43,77,86,11.74,MV,1633798104
La Providencia,28.7167,-111.5833,90.48,45,0,7.0,MX,1633798105
Mabaruma,8.2,-59.7833,91.51,52,93,4.81,GY,1633798106
Kampala,0.3163,32.5822,70.99,85,83,1.28,UG,1633797828
Kirakira,-10.4544,161.9205,78.37,83,100,1.86,SB,1633798109
Ndélé,8.4109,20.6473,79.7,69,86,3.06,CF,1633798110
Lebanon,36.2081,-86.2911,82.83,64,1,5.75,US,1633798021
Sterling,39.0062,-77.4286,72.77,79,75,1.99,US,1633797964
Ouro Preto do Oeste,-10.7481,-62.2158,99.32,30,95,7.45,BR,1633798115
Naryan-Mar,67.6713,53.087,30.97,76,75,8.75,RU,1633798116
Gonder,12.6,37.4667,58.24,89,97,3.53,ET,1633798117
Rabat,33.9911,-6.8401,79.03,86,23,9.22,MA,1633798119
Ust-Kuyga,70.0167,135.6,16.0,90,99,6.51,RU,1633798120
Jerécuaro,20.15,-100.5167,70.99,60,47,3.49,MX,1633798121
Teguise,29.0605,-13.564,75.42,61,20,19.57,ES,1633798123
Pochutla,15.7432,-96.4661,88.83,58,100,4.36,MX,1633798124
Batemans Bay,-35.7167,150.1833,56.1,78,59,4.85,AU,1633798126
Makakilo City,21.3469,-158.0858,75.56,70,75,4.61,US,1633798127
Tiznit Province,29.5833,-9.5,76.8,44,76,7.56,MA,1633798129
Shuyskoye,59.3736,41.0305,44.02,83,100,6.02,RU,1633798130
Te Anau,-45.4167,167.7167,39.85,91,27,0.72,NZ,1633798131
Henties Bay,-22.116,14.2845,60.85,73,28,7.23,NA,1633798133
Morwa,22.9,73.8333,80.98,63,31,3.87,IN,1633798134
Port Hardy,50.6996,-127.4199,48.38,100,90,16.11,CA,1633798135
Araouane,18.9048,-3.5265,99.7,7,88,5.82,ML,1633798137
Gorban,46.8761,28.0789,52.41,40,85,4.61,RO,1633798138
Bergen,60.392,5.328,59.65,76,75,21.85,NO,1633798140
Havre-St-Pierre,50.2334,-63.5986,52.39,71,40,9.22,CA,1633798142
Mgandu,-5.95,34.1333,78.67,29,48,7.67,TZ,1633798143
Shingū,33.7333,135.9833,71.92,89,38,7.83,JP,1633798144
Hilo,19.7297,-155.09,71.33,91,90,6.91,US,1633798146
Strezhevoy,60.7333,77.5889,35.58,66,92,14.41,RU,1633798149
Ratnagiri,16.9833,73.3,79.61,87,99,4.34,IN,1633798150
Inhambane,-23.865,35.3833,75.18,73,0,14.0,MZ,1633798152
Boyolangu,-8.1181,111.8935,74.88,92,75,4.9,ID,1633798153
Vanderhoof,54.0166,-124.0198,43.07,76,100,3.36,CA,1633798154
Banjarmasin,-3.3244,114.591,77.14,87,89,3.22,ID,1633798156
Riyadh,24.6877,46.7219,91.54,14,0,11.7,SA,1633798157
Dryden,49.7833,-92.7503,61.09,94,90,3.44,CA,1633798158
Whitehorse,60.7161,-135.0538,36.37,74,75,11.01,CA,1633798160
Bago,17.3367,96.4797,77.13,94,73,5.03,MM,1633798161
Great Bend,38.3645,-98.7648,81.88,46,1,13.8,US,1633797869
Tura,25.5198,90.2201,74.12,85,0,2.59,IN,1633798164
Bara,10.3744,10.7288,85.84,45,76,3.24,NG,1633798165
Măluşteni,46.1833,27.9167,44.8,42,65,6.98,RO,1633798166
Potosí,-19.5836,-65.7531,61.66,42,40,9.22,BO,1633797889
Teya,60.3778,92.6267,33.87,81,97,15.32,RU,1633798169
Peniche,39.3558,-9.3811,76.73,81,86,11.18,PT,1633798170
Jvari,42.7169,42.052,57.45,70,62,5.3,GE,1633798171
Nyurba,63.2842,118.3319,35.04,96,100,12.97,RU,1633798173
Visby,57.6409,18.296,52.86,93,97,10.36,SE,1633798174
Matara,5.9485,80.5353,79.79,84,98,10.22,LK,1633798175
Goderich,43.7501,-81.7165,69.03,94,79,3.44,CA,1633798177
Vera Cruz,-12.6333,-41.0333,94.17,25,76,7.02,BR,1633798178
Wadi Maliz,36.4681,8.5495,71.26,64,82,12.91,TN,1633798179
Sinnamary,5.3833,-52.95,87.08,63,100,10.96,GF,1633798180
Mīāndoāb,36.9694,46.1027,53.98,56,0,4.36,IR,1633798182
Saint-Paul,-21.0096,55.2707,73.51,76,48,1.68,RE,1633798183
Arrondissement de Saint-Denis,48.9167,2.3333,64.06,63,0,1.99,FR,1633798185
Thinadhoo,0.5333,72.9333,83.82,69,100,9.35,MV,1633798187
Ciudad Bolivar,8.1222,-63.5497,92.93,47,98,5.14,VE,1633798188
Cēsis,57.3119,25.2746,46.72,58,97,4.43,LV,1633798189
Semīrom,31.4167,51.5667,53.19,29,0,4.52,IR,1633798190
Avera,33.194,-82.5271,76.71,76,51,11.54,US,1633798192
Caarapó,-22.6342,-54.8222,74.98,79,99,9.1,BR,1633798193
Jinzhou,41.1078,121.1417,58.08,79,100,6.98,CN,1633798194
Corinth,37.9407,22.9573,72.45,84,50,4.85,GR,1633798196
Cottonwood,34.7392,-112.0099,70.3,57,100,1.01,US,1633797994
Sirohi,24.8833,72.8667,82.2,51,30,6.46,IN,1633798199
Campbeltown,55.4258,-5.6076,57.56,91,67,11.07,GB,1633798200
Shimoda,34.6667,138.95,68.11,88,30,12.66,JP,1633798202
Boa Vista,2.8197,-60.6733,89.58,55,40,2.3,BR,1633798204
Kamenka,51.3223,42.7678,44.47,58,1,5.84,RU,1633798205
Omboué,-1.5746,9.2618,78.53,85,100,10.65,GA,1633798207
Kuršumlija,43.1458,21.2686,46.42,97,100,3.36,RS,1633798208
Zagora,30.3484,-5.8365,90.46,12,8,7.2,MA,1633798209
Masvingo,-20.0637,30.8277,83.14,24,22,9.31,ZW,1633798212
Katangli,51.7102,143.2326,43.09,64,97,8.75,RU,1633798213
Jahāzpur,25.6167,75.2833,81.73,48,0,6.91,IN,1633798214
Churapcha,62.0025,132.4325,29.21,94,98,7.27,RU,1633798217
Haines Junction,60.7522,-137.5108,31.95,86,90,2.3,CA,1633798218
Pisco,-13.7,-76.2167,67.01,72,75,8.05,PE,1633798220
Honjō,36.2333,139.1833,69.06,86,99,3.58,JP,1633798221
Bafoulabé,13.8065,-10.8321,94.55,45,76,3.24,ML,1633798222
Chapais,49.7834,-74.8492,62.38,57,75,10.49,CA,1633798223
Mangai,-4.05,19.5333,83.32,54,71,2.84,CD,1633798225
Galveston,29.3669,-94.9669,86.09,65,40,4.0,US,1633798227
Klaksvík,62.2266,-6.589,50.92,85,52,16.02,FO,1633798229
Sevierville,35.8681,-83.5618,77.7,76,40,0.0,US,1633798231
Lago da Pedra,-4.3333,-45.1667,93.52,43,87,3.98,BR,1633798232
Anadyr,64.75,177.4833,25.3,100,40,4.0,RU,1633798234
Amahai,-3.3333,128.9167,77.77,88,91,2.15,ID,1633798236
Manitouwadge,49.1215,-85.8403,63.32,90,100,5.91,CA,1633798237
Gashua,12.871,11.0482,94.5,14,99,5.39,NG,1633798238
Morehead,37.2711,-87.1764,82.15,60,40,9.22,US,1633798240
Marawi,7.9986,124.2928,64.65,91,100,1.74,PH,1633798241
Wanning,18.8003,110.3967,78.3,84,94,10.02,CN,1633798242
Camaná,-16.6228,-72.7111,66.67,78,80,10.54,PE,1633798243
Grants,35.1473,-107.8514,64.63,48,90,13.8,US,1633798072
Dinskaya,45.2178,39.2283,55.76,57,69,14.99,RU,1633798246
Oddur,4.1213,43.8894,82.15,52,94,12.06,SO,1633798247
Houston,29.7633,-95.3633,85.87,65,40,5.01,US,1633797526
Rome,43.2128,-75.4557,68.88,65,40,1.01,US,1633798208
Eyl,7.9803,49.8164,78.76,79,46,17.81,SO,1633798251
Toktogul,41.8708,72.9402,54.1,79,100,3.51,KG,1633798252
Alexandria,31.2156,29.9553,75.74,69,0,8.05,EG,1633798216
City of San Pedro,14.35,121.0167,81.36,88,75,3.44,PH,1633798254
Kunshan,31.3776,120.9543,78.98,89,13,4.79,CN,1633797956
Būlaevo,54.9056,70.4439,41.22,78,66,6.62,KZ,1633798257
Zyryanka,65.75,150.85,15.55,79,12,7.74,RU,1633798258
Suez,29.9737,32.5263,75.29,66,0,16.89,EG,1633798259
Gambo,4.6482,22.2633,74.5,90,94,1.23,CF,1633798262
Mutoko,-17.397,32.2268,77.85,31,61,6.67,ZW,1633798263
Kununurra,-15.7667,128.7333,76.98,69,13,3.44,AU,1633798265
Sabang,5.8933,95.3214,82.65,79,88,19.46,ID,1633798269
Hermiston,45.8404,-119.2895,58.64,58,1,5.75,US,1633798088
Barcelos,41.5388,-8.6151,76.28,63,96,3.6,PT,1633798136
Payakumbuh,-0.2202,100.6308,72.0,97,73,3.11,ID,1633798273
Mount Gambier,-37.8333,140.7667,39.11,93,95,4.61,AU,1633798274
San Quintín,30.4833,-115.95,69.76,61,5,17.52,MX,1633798275
Emerald,-23.5333,148.1667,71.74,62,0,12.66,AU,1633798278
Tobermory,45.2501,-81.6665,63.3,94,99,10.42,CA,1633798279
Khao Yoi,13.2403,99.8243,77.92,87,100,4.41,TH,1633798280
Nipawin,53.3668,-104.0009,46.44,81,1,5.75,CA,1633798139
Bilma,18.6853,12.9164,89.2,13,7,3.24,NE,1633798283
Porto Santo,33.072,-16.3415,73.78,64,20,14.97,PT,1633798284
Severodvinsk,64.5635,39.8302,35.71,88,100,5.79,RU,1633798286
Khorinsk,52.1657,109.7726,28.83,90,8,4.21,RU,1633798288
Fort Saint James,54.4333,-124.25,42.12,81,100,7.58,CA,1633798289
Beckley,37.7782,-81.1882,70.29,84,75,3.44,US,1633798290
Maniitsoq,65.4167,-52.9,33.84,48,95,10.69,GL,1633798292
Lenoir,35.2335,-77.6497,75.18,100,100,7.94,US,1633798293
Wajima,37.4,136.9,69.84,86,35,6.08,JP,1633798294
Tecpan,14.7623,-90.9947,68.76,53,97,4.47,GT,1633798295
Thunder Bay,48.4001,-89.3168,64.99,99,90,6.91,CA,1633798297
Batagay,67.6333,134.6333,26.46,75,100,6.58,RU,1633798298
Vrangel',42.7297,133.0839,62.4,82,99,9.69,RU,1633798299
Tahlequah,35.9154,-94.97,83.73,44,1,14.97,US,1633798301
Babu,24.4167,111.5167,68.92,97,100,6.53,CN,1633798302
Chisec,15.8167,-90.2833,86.23,64,99,2.95,GT,1633798303
Mudgee,-32.5943,149.5871,50.05,93,44,3.44,AU,1633798305
Flin Flon,54.7682,-101.865,49.84,76,40,10.36,CA,1633798307
Cap-aux-Meules,47.3821,-61.8597,53.65,58,40,11.5,CA,1633798308
Sühbaatar,50.2314,106.2078,34.36,65,20,3.15,MN,1633798310
Solnechnyy,50.7214,136.6319,44.73,67,100,5.26,RU,1633798311
Cayenne,4.9333,-52.3333,91.44,74,40,1.99,GF,1633798312
Kabare,-2.4683,28.8242,64.49,89,97,3.71,CD,1633798313
Rūdiškės,54.5167,24.8333,52.07,66,87,2.71,LT,1633798315
Blagoyevo,63.3667,47.9167,37.69,73,99,2.44,RU,1633798316
Laudio-Llodio,43.1432,-2.962,65.17,68,40,6.91,ES,1633798317
Palatka,29.6486,-81.6376,84.07,47,4,3.78,US,1633798319
Mindelo,16.8901,-24.9804,85.55,62,20,28.77,CV,1633798320
Uddevalla,58.3478,11.9424,55.22,85,99,6.78,SE,1633798254
Xining,36.6167,101.7667,34.86,74,100,3.85,CN,1633798323
Colares,38.7992,-9.4469,76.44,64,20,14.97,PT,1633798324
Olafsvik,64.8945,-23.7142,42.49,84,92,22.15,IS,1633798325
Yilan,24.757,121.753,82.51,92,94,4.23,TW,1633798327
Juneau,58.3019,-134.4197,44.6,95,90,1.99,US,1633798328
Karpathos,35.507,27.2132,73.36,83,20,9.22,GR,1633798329
Gboko,7.3179,8.9951,80.83,80,96,5.77,NG,1633798331
Totness,5.8833,-56.3167,88.25,62,35,11.07,SR,1633798332
Danané,7.2596,-8.155,83.73,67,82,2.08,CI,1633798333
Marabu,4.4148,114.0089,82.54,94,40,2.3,MY,1633798334
Ankang,32.68,109.0172,61.54,82,100,4.99,CN,1633798338
Camacha,33.0833,-16.3333,71.02,64,20,14.97,PT,1633798340
Trujillo Alto,18.3547,-66.0074,92.82,66,75,1.01,PR,1633798341
La Rioja,42.25,-2.5,63.05,69,98,4.5,ES,1633798342
Vestmannaeyjar,63.4427,-20.2734,49.19,87,40,12.66,IS,1633798343
Gazli,40.1333,63.45,51.19,35,46,11.5,UZ,1633798345
Phalombe,-15.8064,35.6507,78.06,22,14,2.68,MW,1633798346
Kijini,-5.85,39.3167,80.33,81,11,13.31,TZ,1633798347
Kokopo,-4.352,152.2633,75.56,88,86,3.15,PG,1633798349
Alta Floresta,-9.8756,-56.0861,97.05,36,64,2.24,BR,1633798350
El Real de Santa Maria,8.109,-77.7325,85.28,79,73,0.96,PA,1633798351
Letlhakeng,-24.0944,25.0298,80.73,9,2,9.69,BW,1633798353
Tessalit,20.1986,1.0114,97.81,7,37,10.18,ML,1633798354
Fuzhou,26.0614,119.3061,80.49,93,90,4.63,CN,1633798356
Dergachi,51.2328,48.7659,47.3,49,4,6.8,RU,1633798357
Los Llanos de Aridane,28.6585,-17.9182,71.35,83,20,17.27,ES,1633798359
Coahuayana Viejo,18.7333,-103.6833,87.75,70,70,2.91,MX,1633798360
Kingaroy,-26.5333,151.8333,60.84,88,40,2.3,AU,1633798362
Oistins,13.0667,-59.5333,87.89,70,40,13.8,BB,1633798363
Mwinilunga,-11.7358,24.4293,81.66,23,45,2.89,ZM,1633798366
San Ignacio,17.1561,-89.0714,84.34,79,40,4.61,BZ,1633798367
Warwick,41.7001,-71.4162,64.87,76,90,11.5,US,1633798368
Imeni Zhelyabova,58.9544,36.5956,45.0,79,100,6.02,RU,1633798369
Porto-Novo,6.4965,2.6036,84.02,75,100,6.87,BJ,1633798371
Porirua,-41.1333,174.85,53.85,79,49,1.99,NZ,1633798218
Kangāvar,34.5043,47.9653,60.62,27,0,6.6,IR,1633798373
San Cristobal,7.7669,-72.225,80.78,43,18,3.4,VE,1633798374
Magdalena,14.1999,121.429,79.92,95,97,0.98,PH,1633798376
Ma’anshan,31.6957,118.4983,75.25,90,83,5.57,CN,1633798377
Mildura,-34.2,142.15,53.56,94,90,10.36,AU,1633798379
Atherton,53.5237,-2.4935,62.73,86,100,4.85,GB,1633798380
Egvekinot,66.3167,-179.1667,17.8,86,100,8.86,RU,1633798381
Lieksa,63.3167,30.0167,50.38,90,100,6.58,FI,1633798382
Guerrero Negro,27.9769,-114.0611,75.11,56,2,20.24,MX,1633798384
Agüimes,27.9054,-15.4461,75.83,61,20,25.32,ES,1633798385
Rockland,41.1668,-74.0496,68.23,76,100,1.99,US,1633798387
Acaraú,-2.8856,-40.12,87.98,60,58,20.45,BR,1633798388
Lata,40.1629,-8.3327,81.05,46,84,4.45,PT,1633798389
Ixtapa,20.7,-105.2,89.22,74,100,1.99,MX,1633798391
Erenhot,43.6475,111.9767,40.86,50,74,17.36,CN,1633798392
Saint Andrews,34.0454,-81.1293,77.04,68,75,10.36,US,1633798393
Yashkul',46.1711,45.3435,51.46,32,98,8.59,RU,1633798395
Villa Bruzual,9.3328,-69.1208,86.0,70,48,3.91,VE,1633798396
Dutlwe,-23.9833,23.9,79.48,7,16,7.25,BW,1633798397
Tobol,52.6844,62.5794,44.26,44,5,4.54,KZ,1633798398
Beloha,-25.1667,45.05,70.79,61,0,3.22,MG,1633798400
Sistranda,63.7256,8.834,59.9,89,100,11.88,NO,1633798401
Atambua,-9.1061,124.8925,73.31,82,63,4.72,ID,1633798402
Naze,28.3667,129.4833,76.53,82,23,20.89,JP,1633798404
